branch_name,lat,lon,to_denver,to_edgewater,to_wheatridge,to_rino,to_lakewood,nearby_clinics
denver,39.73906432357836,-104.98969659655802,0.0,5.1,6.3,2.0,8.0,"[('rino', 2.0), ('edgewater', 5.1)]"
edgewater,39.753954449845445,-105.06778796142915,5.0,0.0,2.0,7.7,4.4,"[('wheatridge', 2.0), ('lakewood', 4.4), ('denver', 5.0)]"
wheatridge,39.76685732722651,-105.08198265044479,6.3,2.0,0.0,7.8,4.8,"[('edgewater', 2.0), ('lakewood', 4.8)]"
rino,39.767327859566265,-104.98113186098168,1.9,7.8,7.5,0.0,10.7,"[('denver', 1.9)]"
lakewood,39.70455155721396,-105.0798829449297,7.5,4.3,12.0,11.0,0.0,"[('edgewater', 4.3)]"
